<?xml version="1.0" encoding="utf-8"?><EcoData><Objects><SysMDrivenMiscSettingsSingleton><id Type="Int32">0</id><timestamp>0</timestamp><attributes><GlobalSeekerGridExportFileMaxRows isNull="true" /><GlobalReadOnlyModeUseSaveAndLock>False</GlobalReadOnlyModeUseSaveAndLock><GlobalUnRootedAlwaysNew>False</GlobalUnRootedAlwaysNew><GlobalNavigateOnDoubleClickWithoutMenu>False</GlobalNavigateOnDoubleClickWithoutMenu><GlobalSeekerGridShowImportOnlyONTV>False</GlobalSeekerGridShowImportOnlyONTV><LibreOfficeInstallPathAndExe isNull="true" /><GlobalToolbarMode>False</GlobalToolbarMode><GlobalMainUIEngine isNull="true" /><GlobalModalOfferOpenStandalone>True</GlobalModalOfferOpenStandalone><GlobalHideActionOnDisable>False</GlobalHideActionOnDisable><GlobalCenteredPopUp>False</GlobalCenteredPopUp><GlobalReadOnlyMode>False</GlobalReadOnlyMode></attributes><links /></SysMDrivenMiscSettingsSingleton><SysSingleton><id Type="Int32">1</id><timestamp>1</timestamp><attributes><ChangeTime Value="08/11/2025 21:09:27">-8584466675183928967</ChangeTime><Guid>3a680f68-5b3b-4e61-8ae4-529503325d15</Guid><CreateTime Value="08/11/2025 21:09:27">-8584466675183937644</CreateTime></attributes><links /></SysSingleton><Position><id Type="Int32">10</id><timestamp>0</timestamp><attributes><lng>22.645025321836577</lng><title>a</title><lat>58.899124439550825</lat><color isNull="true" /><polygonifset isNull="true" /></attributes><links><Thing><type>Thing</type><id Type="Int32">2</id></Thing></links></Position><Position><id Type="Int32">11</id><timestamp>0</timestamp><attributes><lng>22.36453063189517</lng><title>b</title><lat>58.899124439550825</lat><color isNull="true" /><polygonifset isNull="true" /></attributes><links><Thing><type>Thing</type><id Type="Int32">2</id></Thing></links></Position><Position><id Type="Int32">13</id><timestamp>0</timestamp><attributes><lng>22.87367827593814</lng><title>c</title><lat>58.8599983730128</lat><color isNull="true" /><polygonifset isNull="true" /></attributes><links><Thing><type>Thing</type><id Type="Int32">2</id></Thing></links></Position><Position><id Type="Int32">14</id><timestamp>0</timestamp><attributes><lng>22.87367827593814</lng><title>d</title><lat>58.8599983730128</lat><color isNull="true" /><polygonifset isNull="true" /></attributes><links><Thing><type>Thing</type><id Type="Int32">2</id></Thing></links></Position><Position><id Type="Int32">16</id><timestamp>3</timestamp><attributes><lng>22.809133598203765</lng><title isNull="true" /><lat>58.89389245056442</lat><color isNull="true" /><polygonifset isNull="true" /></attributes><links><Thing><type>Thing</type><id Type="Int32">2</id></Thing></links></Position><Position><id Type="Int32">17</id><timestamp>3</timestamp><attributes><lng>22.809133598203765</lng><title isNull="true" /><lat>58.89389245056442</lat><color isNull="true" /><polygonifset isNull="true" /></attributes><links><Thing><type>Thing</type><id Type="Int32">2</id></Thing></links></Position><Position><id Type="Int32">19</id><timestamp>0</timestamp><attributes><lng>22.546718582151843</lng><title isNull="true" /><lat>58.7638271048867</lat><color isNull="true" /><polygonifset isNull="true" /></attributes><links><Thing><type>Thing</type><id Type="Int32">2</id></Thing></links></Position><Thing><id Type="Int32">2</id><timestamp>0</timestamp><attributes><Attribute1 isNull="true" /><FileType isNull="true" /><CenterLat>59.39379874335413</CenterLat><CenterLng>17.92970012210356</CenterLng><Zoom>11</Zoom><Some3dStlFile isNull="true" /><SomeText isNull="true" /></attributes><links /></Thing><Position><id Type="Int32">20</id><timestamp>0</timestamp><attributes><lng>22.546718582151843</lng><title isNull="true" /><lat>58.7638271048867</lat><color isNull="true" /><polygonifset isNull="true" /></attributes><links><Thing><type>Thing</type><id Type="Int32">2</id></Thing></links></Position><Position><id Type="Int32">22</id><timestamp>0</timestamp><attributes><lng></lng><title isNull="true" /><lat></lat><color isNull="true" /><polygonifset isNull="true" /></attributes><links><Thing><type>Thing</type><id Type="Int32">2</id></Thing></links></Position><Position><id Type="Int32">23</id><timestamp>0</timestamp><attributes><lng>17.908571532226997</lng><title isNull="true" /><lat>59.36715659468098</lat><color isNull="true" /><polygonifset isNull="true" /></attributes><links><Thing><type>Thing</type><id Type="Int32">2</id></Thing></links></Position><Position><id Type="Int32">24</id><timestamp>0</timestamp><attributes><lng>17.908571532226997</lng><title isNull="true" /><lat>59.36715659468098</lat><color isNull="true" /><polygonifset isNull="true" /></attributes><links><Thing><type>Thing</type><id Type="Int32">2</id></Thing></links></Position><SerieValue><id Type="Int32">25</id><timestamp>0</timestamp><attributes><Dimension>a</Dimension><SeriesBy>x1</SeriesBy><Value>4</Value></attributes><links><Thing><type>Thing</type><id Type="Int32">2</id></Thing></links></SerieValue><SerieValue><id Type="Int32">26</id><timestamp>0</timestamp><attributes><Dimension>b</Dimension><SeriesBy>x1</SeriesBy><Value>5</Value></attributes><links><Thing><type>Thing</type><id Type="Int32">2</id></Thing></links></SerieValue><SerieValue><id Type="Int32">27</id><timestamp>0</timestamp><attributes><Dimension>c</Dimension><SeriesBy>x1</SeriesBy><Value>6</Value></attributes><links><Thing><type>Thing</type><id Type="Int32">2</id></Thing></links></SerieValue><SerieValue><id Type="Int32">28</id><timestamp>0</timestamp><attributes><Dimension>a</Dimension><SeriesBy>x2</SeriesBy><Value>2</Value></attributes><links><Thing><type>Thing</type><id Type="Int32">2</id></Thing></links></SerieValue><SerieValue><id Type="Int32">29</id><timestamp>1</timestamp><attributes><Dimension>b</Dimension><SeriesBy>x2</SeriesBy><Value>1</Value></attributes><links><Thing><type>Thing</type><id Type="Int32">2</id></Thing></links></SerieValue><SerieValue><id Type="Int32">30</id><timestamp>1</timestamp><attributes><Dimension>c</Dimension><SeriesBy>x2</SeriesBy><Value>8</Value></attributes><links><Thing><type>Thing</type><id Type="Int32">2</id></Thing></links></SerieValue><SerieValue><id Type="Int32">31</id><timestamp>2</timestamp><attributes><Dimension>d</Dimension><SeriesBy>x2</SeriesBy><Value>4</Value></attributes><links><Thing><type>Thing</type><id Type="Int32">2</id></Thing></links></SerieValue><Position><id Type="Int32">32</id><timestamp>0</timestamp><attributes><lng>17.90299987392187</lng><title isNull="true" /><lat>59.36903032012069</lat><color isNull="true" /><polygonifset isNull="true" /></attributes><links><Thing><type>Thing</type><id Type="Int32">2</id></Thing></links></Position><Position><id Type="Int32">33</id><timestamp>0</timestamp><attributes><lng>17.90299987392187</lng><title isNull="true" /><lat>59.36903032012069</lat><color isNull="true" /><polygonifset isNull="true" /></attributes><links><Thing><type>Thing</type><id Type="Int32">2</id></Thing></links></Position><Position><id Type="Int32">34</id><timestamp>0</timestamp><attributes><lng>17.90299987392187</lng><title isNull="true" /><lat>59.36903032012069</lat><color isNull="true" /><polygonifset isNull="true" /></attributes><links><Thing><type>Thing</type><id Type="Int32">2</id></Thing></links></Position><Position><id Type="Int32">35</id><timestamp>0</timestamp><attributes><lng></lng><title isNull="true" /><lat></lat><color isNull="true" /><polygonifset isNull="true" /></attributes><links><Thing><type>Thing</type><id Type="Int32">2</id></Thing></links></Position><Position><id Type="Int32">36</id><timestamp>0</timestamp><attributes><lng>17.90309210524569</lng><title isNull="true" /><lat>59.36885403215082</lat><color isNull="true" /><polygonifset isNull="true" /></attributes><links><Thing><type>Thing</type><id Type="Int32">2</id></Thing></links></Position><Position><id Type="Int32">37</id><timestamp>0</timestamp><attributes><lng>17.90309210524569</lng><title isNull="true" /><lat>59.36885403215082</lat><color isNull="true" /><polygonifset isNull="true" /></attributes><links><Thing><type>Thing</type><id Type="Int32">2</id></Thing></links></Position><Position><id Type="Int32">38</id><timestamp>0</timestamp><attributes><lng>17.90309210524569</lng><title isNull="true" /><lat>59.36885403215082</lat><color isNull="true" /><polygonifset isNull="true" /></attributes><links><Thing><type>Thing</type><id Type="Int32">2</id></Thing></links></Position><Position><id Type="Int32">39</id><timestamp>0</timestamp><attributes><lng>17.90309210524569</lng><title isNull="true" /><lat>59.3690219886718</lat><color isNull="true" /><polygonifset isNull="true" /></attributes><links><Thing><type>Thing</type><id Type="Int32">2</id></Thing></links></Position><Position><id Type="Int32">40</id><timestamp>0</timestamp><attributes><lng>17.903236944532495</lng><title isNull="true" /><lat>59.3690219886718</lat><color isNull="true" /><polygonifset isNull="true" /></attributes><links><Thing><type>Thing</type><id Type="Int32">2</id></Thing></links></Position><Position><id Type="Int32">41</id><timestamp>0</timestamp><attributes><lng></lng><title isNull="true" /><lat></lat><color isNull="true" /><polygonifset isNull="true" /></attributes><links><Thing><type>Thing</type><id Type="Int32">2</id></Thing></links></Position><Position><id Type="Int32">42</id><timestamp>0</timestamp><attributes><lng>17.90321615741263</lng><title isNull="true" /><lat>59.36903462975194</lat><color isNull="true" /><polygonifset isNull="true" /></attributes><links><Thing><type>Thing</type><id Type="Int32">2</id></Thing></links></Position><Position><id Type="Int32">43</id><timestamp>0</timestamp><attributes><lng>17.90321615741263</lng><title isNull="true" /><lat>59.36903462975194</lat><color isNull="true" /><polygonifset isNull="true" /></attributes><links><Thing><type>Thing</type><id Type="Int32">2</id></Thing></links></Position><Position><id Type="Int32">44</id><timestamp>0</timestamp><attributes><lng>17.90321615741263</lng><title isNull="true" /><lat>59.36903462975194</lat><color isNull="true" /><polygonifset isNull="true" /></attributes><links><Thing><type>Thing</type><id Type="Int32">2</id></Thing></links></Position><Position><id Type="Int32">45</id><timestamp>0</timestamp><attributes><lng>17.90321615741263</lng><title isNull="true" /><lat>59.369000874374116</lat><color isNull="true" /><polygonifset isNull="true" /></attributes><links><Thing><type>Thing</type><id Type="Int32">2</id></Thing></links></Position><Position><id Type="Int32">46</id><timestamp>0</timestamp><attributes><lng>17.903178941762548</lng><title isNull="true" /><lat>59.369000874374116</lat><color isNull="true" /><polygonifset isNull="true" /></attributes><links><Thing><type>Thing</type><id Type="Int32">2</id></Thing></links></Position><Position><id Type="Int32">47</id><timestamp>0</timestamp><attributes><lng></lng><title isNull="true" /><lat></lat><color isNull="true" /><polygonifset isNull="true" /></attributes><links><Thing><type>Thing</type><id Type="Int32">2</id></Thing></links></Position><Position><id Type="Int32">48</id><timestamp>0</timestamp><attributes><lng></lng><title isNull="true" /><lat>59.36898430429219</lat><color isNull="true" /><polygonifset isNull="true" /></attributes><links><Thing><type>Thing</type><id Type="Int32">2</id></Thing></links></Position><Position><id Type="Int32">49</id><timestamp>0</timestamp><attributes><lng></lng><title isNull="true" /><lat>59.36898430429219</lat><color isNull="true" /><polygonifset isNull="true" /></attributes><links><Thing><type>Thing</type><id Type="Int32">2</id></Thing></links></Position><Position><id Type="Int32">5</id><timestamp>0</timestamp><attributes><lng>22.4952975732102</lng><title isNull="true" /><lat>58.85245197975354</lat><color isNull="true" /><polygonifset isNull="true" /></attributes><links><Thing><type>Thing</type><id Type="Int32">2</id></Thing></links></Position><Position><id Type="Int32">50</id><timestamp>0</timestamp><attributes><lng></lng><title isNull="true" /><lat></lat><color isNull="true" /><polygonifset isNull="true" /></attributes><links><Thing><type>Thing</type><id Type="Int32">2</id></Thing></links></Position><Position><id Type="Int32">51</id><timestamp>0</timestamp><attributes><lng>17.903189000046353</lng><title isNull="true" /><lat>59.36897712961503</lat><color isNull="true" /><polygonifset isNull="true" /></attributes><links><Thing><type>Thing</type><id Type="Int32">2</id></Thing></links></Position><Position><id Type="Int32">52</id><timestamp>0</timestamp><attributes><lng>17.903189000046353</lng><title isNull="true" /><lat>59.36897712961503</lat><color isNull="true" /><polygonifset isNull="true" /></attributes><links><Thing><type>Thing</type><id Type="Int32">2</id></Thing></links></Position><Position><id Type="Int32">53</id><timestamp>0</timestamp><attributes><lng></lng><title isNull="true" /><lat>59.36897712961503</lat><color isNull="true" /><polygonifset isNull="true" /></attributes><links><Thing><type>Thing</type><id Type="Int32">2</id></Thing></links></Position><Position><id Type="Int32">54</id><timestamp>0</timestamp><attributes><lng>17.90318195924769</lng><title isNull="true" /><lat>59.368947576762174</lat><color isNull="true" /><polygonifset isNull="true" /></attributes><links><Thing><type>Thing</type><id Type="Int32">2</id></Thing></links></Position><Position><id Type="Int32">55</id><timestamp>0</timestamp><attributes><lng>17.90318195924769</lng><title isNull="true" /><lat>59.368947576762174</lat><color isNull="true" /><polygonifset isNull="true" /></attributes><links><Thing><type>Thing</type><id Type="Int32">2</id></Thing></links></Position><Position><id Type="Int32">56</id><timestamp>0</timestamp><attributes><lng>17.90318195924769</lng><title isNull="true" /><lat></lat><color isNull="true" /><polygonifset isNull="true" /></attributes><links><Thing><type>Thing</type><id Type="Int32">2</id></Thing></links></Position><Position><id Type="Int32">57</id><timestamp>0</timestamp><attributes><lng>17.90318195924769</lng><title isNull="true" /><lat>59.36893937712214</lat><color isNull="true" /><polygonifset isNull="true" /></attributes><links><Thing><type>Thing</type><id Type="Int32">2</id></Thing></links></Position><Position><id Type="Int32">58</id><timestamp>0</timestamp><attributes><lng>17.90318195924769</lng><title isNull="true" /><lat>59.36893937712214</lat><color isNull="true" /><polygonifset isNull="true" /></attributes><links><Thing><type>Thing</type><id Type="Int32">2</id></Thing></links></Position><Position><id Type="Int32">59</id><timestamp>1</timestamp><attributes><lng></lng><title isNull="true" /><lat></lat><color isNull="true" /><polygonifset isNull="true" /></attributes><links><Thing><type>Thing</type><id Type="Int32">2</id></Thing></links></Position><Position><id Type="Int32">60</id><timestamp>1</timestamp><attributes><lng>17.90862633992314</lng><title isNull="true" /><lat>59.367150407366715</lat><color isNull="true" /><polygonifset isNull="true" /></attributes><links><Thing><type>Thing</type><id Type="Int32">2</id></Thing></links></Position><Position><id Type="Int32">61</id><timestamp>1</timestamp><attributes><lng>17.90862633992314</lng><title isNull="true" /><lat>59.367150407366715</lat><color isNull="true" /><polygonifset isNull="true" /></attributes><links><Thing><type>Thing</type><id Type="Int32">2</id></Thing></links></Position><Position><id Type="Int32">62</id><timestamp>1</timestamp><attributes><lng>17.90862633992314</lng><title isNull="true" /><lat>59.367150407366715</lat><color isNull="true" /><polygonifset isNull="true" /></attributes><links><Thing><type>Thing</type><id Type="Int32">2</id></Thing></links></Position><Position><id Type="Int32">63</id><timestamp>1</timestamp><attributes><lng>17.90862633992314</lng><title isNull="true" /><lat>59.36710882640264</lat><color isNull="true" /><polygonifset isNull="true" /></attributes><links><Thing><type>Thing</type><id Type="Int32">2</id></Thing></links></Position><Position><id Type="Int32">64</id><timestamp>1</timestamp><attributes><lng>17.90859951783299</lng><title isNull="true" /><lat>59.36710882640264</lat><color isNull="true" /><polygonifset isNull="true" /></attributes><links><Thing><type>Thing</type><id Type="Int32">2</id></Thing></links></Position><Position><id Type="Int32">65</id><timestamp>1</timestamp><attributes><lng></lng><title isNull="true" /><lat></lat><color isNull="true" /><polygonifset isNull="true" /></attributes><links><Thing><type>Thing</type><id Type="Int32">2</id></Thing></links></Position><Position><id Type="Int32">66</id><timestamp>1</timestamp><attributes><lng></lng><title isNull="true" /><lat>59.36710933890786</lat><color isNull="true" /><polygonifset isNull="true" /></attributes><links><Thing><type>Thing</type><id Type="Int32">2</id></Thing></links></Position><Position><id Type="Int32">67</id><timestamp>1</timestamp><attributes><lng></lng><title isNull="true" /><lat>59.36710933890786</lat><color isNull="true" /><polygonifset isNull="true" /></attributes><links><Thing><type>Thing</type><id Type="Int32">2</id></Thing></links></Position><Position><id Type="Int32">68</id><timestamp>1</timestamp><attributes><lng></lng><title isNull="true" /><lat>59.36710933890786</lat><color isNull="true" /><polygonifset isNull="true" /></attributes><links><Thing><type>Thing</type><id Type="Int32">2</id></Thing></links></Position><Position><id Type="Int32">69</id><timestamp>1</timestamp><attributes><lng></lng><title isNull="true" /><lat>59.36710933890786</lat><color isNull="true" /><polygonifset isNull="true" /></attributes><links><Thing><type>Thing</type><id Type="Int32">2</id></Thing></links></Position><Position><id Type="Int32">7</id><timestamp>0</timestamp><attributes><lng>22.645025321836577</lng><title isNull="true" /><lat>58.80198208329507</lat><color isNull="true" /><polygonifset isNull="true" /></attributes><links><Thing><type>Thing</type><id Type="Int32">2</id></Thing></links></Position><Position><id Type="Int32">70</id><timestamp>1</timestamp><attributes><lng>17.9085384975779</lng><title isNull="true" /><lat>59.36710933890786</lat><color isNull="true" /><polygonifset isNull="true" /></attributes><links><Thing><type>Thing</type><id Type="Int32">2</id></Thing></links></Position><Position><id Type="Int32">71</id><timestamp>1</timestamp><attributes><lng></lng><title isNull="true" /><lat></lat><color isNull="true" /><polygonifset isNull="true" /></attributes><links><Thing><type>Thing</type><id Type="Int32">2</id></Thing></links></Position><Position><id Type="Int32">72</id><timestamp>1</timestamp><attributes><lng>17.908524420592283</lng><title isNull="true" /><lat>59.36711761528435</lat><color isNull="true" /><polygonifset isNull="true" /></attributes><links><Thing><type>Thing</type><id Type="Int32">2</id></Thing></links></Position><Position><id Type="Int32">73</id><timestamp>1</timestamp><attributes><lng>17.908524420592283</lng><title isNull="true" /><lat>59.36711761528435</lat><color isNull="true" /><polygonifset isNull="true" /></attributes><links><Thing><type>Thing</type><id Type="Int32">2</id></Thing></links></Position><Position><id Type="Int32">74</id><timestamp>1</timestamp><attributes><lng>17.908524420592283</lng><title isNull="true" /><lat>59.36711761528435</lat><color isNull="true" /><polygonifset isNull="true" /></attributes><links><Thing><type>Thing</type><id Type="Int32">2</id></Thing></links></Position><Position><id Type="Int32">75</id><timestamp>0</timestamp><attributes><lng></lng><title isNull="true" /><lat>59.389077440499555</lat><color isNull="true" /><polygonifset isNull="true" /></attributes><links><Thing><type>Thing</type><id Type="Int32">2</id></Thing></links></Position><Position><id Type="Int32">76</id><timestamp>0</timestamp><attributes><lng></lng><title isNull="true" /><lat>59.389077440499555</lat><color isNull="true" /><polygonifset isNull="true" /></attributes><links><Thing><type>Thing</type><id Type="Int32">2</id></Thing></links></Position><Position><id Type="Int32">77</id><timestamp>0</timestamp><attributes><lng>17.92774971646313</lng><title isNull="true" /><lat>59.389077440499555</lat><color isNull="true" /><polygonifset isNull="true" /></attributes><links><Thing><type>Thing</type><id Type="Int32">2</id></Thing></links></Position><Position><id Type="Int32">78</id><timestamp>0</timestamp><attributes><lng></lng><title isNull="true" /><lat></lat><color isNull="true" /><polygonifset isNull="true" /></attributes><links><Thing><type>Thing</type><id Type="Int32">2</id></Thing></links></Position><Position><id Type="Int32">79</id><timestamp>0</timestamp><attributes><lng>17.894800312072093</lng><title isNull="true" /><lat>59.395763827901824</lat><color isNull="true" /><polygonifset isNull="true" /></attributes><links><Thing><type>Thing</type><id Type="Int32">2</id></Thing></links></Position><Position><id Type="Int32">80</id><timestamp>0</timestamp><attributes><lng>17.894800312072093</lng><title isNull="true" /><lat>59.395763827901824</lat><color isNull="true" /><polygonifset isNull="true" /></attributes><links><Thing><type>Thing</type><id Type="Int32">2</id></Thing></links></Position><Thing><id Type="Int32">81</id><timestamp>2</timestamp><attributes><Attribute1 isNull="true" /><FileType isNull="true" /><CenterLat>59.32434207523672</CenterLat><CenterLng>18.04631878755771</CenterLng><Zoom>11</Zoom><Some3dStlFile isNull="true" /><SomeText isNull="true" /></attributes><links /></Thing><Position><id Type="Int32">82</id><timestamp>0</timestamp><attributes><lng>18.056927026367173</lng><title>A</title><lat>59.31174689341482</lat><color isNull="true" /><polygonifset>AAA</polygonifset></attributes><links><Thing><type>Thing</type><id Type="Int32">81</id></Thing></links></Position><Position><id Type="Int32">83</id><timestamp>0</timestamp><attributes><lng>18.127994836425767</lng><title isNull="true" /><lat>59.31332384110451</lat><color isNull="true" /><polygonifset>AAA</polygonifset></attributes><links><Thing><type>Thing</type><id Type="Int32">81</id></Thing></links></Position><Position><id Type="Int32">84</id><timestamp>0</timestamp><attributes><lng>18.12490493164061</lng><title isNull="true" /><lat>59.286330431523254</lat><color isNull="true" /><polygonifset>AAA</polygonifset></attributes><links><Thing><type>Thing</type><id Type="Int32">81</id></Thing></links></Position><Position><id Type="Int32">85</id><timestamp>0</timestamp><attributes><lng>18.061390222167955</lng><title isNull="true" /><lat>59.28650578249731</lat><color isNull="true" /><polygonifset></polygonifset></attributes><links><Thing><type>Thing</type><id Type="Int32">81</id></Thing></links></Position><Position><id Type="Int32">86</id><timestamp>0</timestamp><attributes><lng>17.98585921630858</lng><title isNull="true" /><lat>59.27773712714327</lat><color isNull="true" /><polygonifset></polygonifset></attributes><links><Thing><type>Thing</type><id Type="Int32">81</id></Thing></links></Position><Position><id Type="Int32">87</id><timestamp>0</timestamp><attributes><lng>18.009720147705064</lng><title isNull="true" /><lat>59.26317617226975</lat><color isNull="true" /><polygonifset></polygonifset></attributes><links><Thing><type>Thing</type><id Type="Int32">81</id></Thing></links></Position><Position><id Type="Int32">88</id><timestamp>0</timestamp><attributes><lng>18.17613858211899</lng><title isNull="true" /><lat>59.24334156554973</lat><color isNull="true" /><polygonifset>AAA</polygonifset></attributes><links><Thing><type>Thing</type><id Type="Int32">81</id></Thing></links></Position><Position><id Type="Int32">89</id><timestamp>0</timestamp><attributes><lng>17.88225430477524</lng><title isNull="true" /><lat>59.21664404852907</lat><color isNull="true" /><polygonifset>AAA</polygonifset></attributes><links><Thing><type>Thing</type><id Type="Int32">81</id></Thing></links></Position><Position><id Type="Int32">90</id><timestamp>0</timestamp><attributes><lng>18.100019194809054</lng><title isNull="true" /><lat>59.39272710153523</lat><color isNull="true" /><polygonifset>BBB</polygonifset></attributes><links><Thing><type>Thing</type><id Type="Int32">81</id></Thing></links></Position><Position><id Type="Int32">91</id><timestamp>0</timestamp><attributes><lng>18.18447659226999</lng><title isNull="true" /><lat>59.38363612608263</lat><color isNull="true" /><polygonifset>BBB</polygonifset></attributes><links><Thing><type>Thing</type><id Type="Int32">81</id></Thing></links></Position><Position><id Type="Int32">92</id><timestamp>0</timestamp><attributes><lng>18.262067534652804</lng><title isNull="true" /><lat>59.366496506309204</lat><color isNull="true" /><polygonifset>BBB</polygonifset></attributes><links><Thing><type>Thing</type><id Type="Int32">81</id></Thing></links></Position><Position><id Type="Int32">93</id><timestamp>0</timestamp><attributes><lng>18.21743557664499</lng><title isNull="true" /><lat>59.338844999307184</lat><color isNull="true" /><polygonifset>BBB</polygonifset></attributes><links><Thing><type>Thing</type><id Type="Int32">81</id></Thing></links></Position><Position><id Type="Int32">94</id><timestamp>0</timestamp><attributes><lng>18.185163237777804</lng><title isNull="true" /><lat>59.33254150505694</lat><color isNull="true" /><polygonifset>BBB</polygonifset></attributes><links><Thing><type>Thing</type><id Type="Int32">81</id></Thing></links></Position><Position><id Type="Int32">95</id><timestamp>0</timestamp><attributes><lng>18.119245269027804</lng><title isNull="true" /><lat>59.35179850916824</lat><color isNull="true" /><polygonifset>BBB</polygonifset></attributes><links><Thing><type>Thing</type><id Type="Int32">81</id></Thing></links></Position></Objects><ModelInfo><package name="ASPNETIdentityPackage"><class name="Position" id="667fbfea-1e58-4206-86e4-c3c7cc3d8915"><attribute name="lng" id="25904ae0-16a1-4be8-934f-5fadc0e2f7a8" /><attribute name="title" id="3c686859-c090-467e-b5f5-5450148c0614" /><attribute name="lat" id="92844483-6e0b-4a09-9964-21d1860723a9" /><attribute name="color" id="fa06cd1e-4627-493e-a957-9e8029eae718" /><attribute name="polygonifset" id="fc83166b-d7c5-4ae0-b0ab-5b7918936c62" /><associationend name="Thing" id="ef46f6ad-3448-4fff-b0ec-e5d1c65880c3" /></class><class name="SerieValue" id="6c68f784-b6eb-4241-a674-24badfbf05dc"><attribute name="Dimension" id="585e8132-a71b-49de-8548-af189d155fb5" /><attribute name="SeriesBy" id="98a6846f-ee3e-4f2e-b7b6-fb996c4ef13c" /><attribute name="Value" id="9d739d65-5520-460c-90aa-fba2ca066cc2" /><associationend name="Thing" id="b011aa80-ab23-42ac-9f29-9d4b7b1edf0a" /></class><class name="SysMDrivenMiscSettingsSingleton" id="83217de3-05ce-4126-817c-786b4b4ae888"><attribute name="GlobalSeekerGridExportFileMaxRows" id="215d85c2-6074-434a-8967-2f578312eb59" /><attribute name="GlobalReadOnlyModeUseSaveAndLock" id="22a6e760-ecd0-46f2-92c0-15d64a81f87a" /><attribute name="GlobalUnRootedAlwaysNew" id="29b0a40a-d128-4c8b-8f2a-ab3d702e378d" /><attribute name="GlobalNavigateOnDoubleClickWithoutMenu" id="30e467fe-2dae-4f58-9158-a79182675160" /><attribute name="GlobalSeekerGridShowImportOnlyONTV" id="32c7d25a-2879-4971-b57c-77296684ce62" /><attribute name="LibreOfficeInstallPathAndExe" id="9186699e-a79c-4d23-a415-4541ee13cc0a" /><attribute name="GlobalToolbarMode" id="a3cc9774-5edb-4729-abf0-530527cbc283" /><attribute name="GlobalMainUIEngine" id="b2b5fa2c-bd39-4234-a030-bb6d7fb138f1" /><attribute name="GlobalModalOfferOpenStandalone" id="caca1682-6263-4793-a0b1-7e89ba60bd55" /><attribute name="GlobalHideActionOnDisable" id="cb19347c-5828-4f80-b916-a87cede03a36" /><attribute name="GlobalCenteredPopUp" id="dbb5de09-85b9-42ba-9e98-0bd0c56754f5" /><attribute name="GlobalReadOnlyMode" id="f63a7c0a-b561-4430-80e2-3fbd6b926806" /></class></package><package name="Package1Package"><class name="Thing" id="c6447260-62e4-448c-81aa-af020f0a2fa0"><attribute name="Attribute1" id="4a633504-ea3e-41c0-b278-20f82fe75705" /><attribute name="FileType" id="4aeae469-a740-466f-9c98-9afa15f7f088" /><attribute name="CenterLat" id="61cd9c77-34c4-4062-a1d9-b9f53143e4ac" /><attribute name="CenterLng" id="6eacd660-8e78-47c4-8e95-8239e70bb10c" /><attribute name="Zoom" id="a04d0835-edcc-4afc-9d02-92bdade56a11" /><attribute name="Some3dStlFile" id="a0702e3f-f8d8-4039-a0ce-73fd0b718a1b" /><attribute name="SomeText" id="a89060c1-c711-4227-a9f5-19f75f1552de" /></class></package><package name="AuthenticationPackagePackage"><class name="SysUser" id="0017d588-d3cf-433b-b763-93ae056419c3"><attribute name="ChangeTime" id="595b61dd-b2d6-4010-9557-88d32ad9e4cd" /><attribute name="Guid" id="6c4398ca-d6f8-4763-b162-77c675aa06dc" /><attribute name="CreateTime" id="89803d28-5552-457f-bc84-33f0bf1ba9eb" /><attribute name="SendMeNews" id="478748bb-b51a-466c-a099-ce7722d20731" /><attribute name="IsAdmin" id="6abf6cc3-a120-48a2-a612-4f1c13c95b60" /><attribute name="Id" id="89122322-2cab-435d-8720-ab8c961dc818" /><attribute name="PasswordHash" id="977ffc63-785a-46d8-adc7-59b60a1ff106" /><attribute name="UserName" id="9f49bb8e-ae50-4ec5-85e5-79c907bafdd3" /><attribute name="SecurityStamp" id="f735f6e1-6746-41d8-b1a2-f2084b7b12d2" /><associationend name="CurrentSysSession" id="524721ab-f377-401a-953f-f53f9a40bacc" /></class><class name="SysUserRole" id="0f3cc3a3-8d73-463c-83f0-abf087ba0aaf"><attribute name="ChangeTime" id="595b61dd-b2d6-4010-9557-88d32ad9e4cd" /><attribute name="Guid" id="6c4398ca-d6f8-4763-b162-77c675aa06dc" /><attribute name="CreateTime" id="89803d28-5552-457f-bc84-33f0bf1ba9eb" /><associationend name="SysRoles" id="11db81ec-1bbe-44ec-8b5b-3eabbb98d46a.innerlink" /><associationend name="SysUsers" id="2e115e1e-fcc5-432d-b68b-b8416b0b36db.innerlink" /></class><class name="SysSuperClass" id="305f131d-d82d-49fa-8735-f894e1d58636"><attribute name="ChangeTime" id="595b61dd-b2d6-4010-9557-88d32ad9e4cd" /><attribute name="Guid" id="6c4398ca-d6f8-4763-b162-77c675aa06dc" /><attribute name="CreateTime" id="89803d28-5552-457f-bc84-33f0bf1ba9eb" /></class><class name="SysRole" id="56e1db7e-00b4-4273-bb39-1e8ad181328b"><attribute name="ChangeTime" id="595b61dd-b2d6-4010-9557-88d32ad9e4cd" /><attribute name="Guid" id="6c4398ca-d6f8-4763-b162-77c675aa06dc" /><attribute name="CreateTime" id="89803d28-5552-457f-bc84-33f0bf1ba9eb" /><attribute name="Name" id="59e869ad-6136-49a7-86d2-074a6595cdf9" /></class><class name="SysExternalLogin" id="8ea431b6-73df-4536-a07a-751b01f5dd17"><attribute name="ChangeTime" id="595b61dd-b2d6-4010-9557-88d32ad9e4cd" /><attribute name="Guid" id="6c4398ca-d6f8-4763-b162-77c675aa06dc" /><attribute name="CreateTime" id="89803d28-5552-457f-bc84-33f0bf1ba9eb" /><attribute name="LoginProvider" id="172a11ee-84fb-412e-8f05-520d45d21416" /><attribute name="ProviderKey" id="780de44d-2a38-4d28-bc4a-3d59f8d52f98" /><associationend name="SysUser" id="8847b309-9ee6-4258-8365-0b100f9c6108" /></class><class name="SysSession" id="8ee81196-0f0b-4b97-bdef-7ff31af15c4a"><attribute name="ChangeTime" id="595b61dd-b2d6-4010-9557-88d32ad9e4cd" /><attribute name="Guid" id="6c4398ca-d6f8-4763-b162-77c675aa06dc" /><attribute name="CreateTime" id="89803d28-5552-457f-bc84-33f0bf1ba9eb" /><attribute name="UserAgentString" id="03e12292-4f04-47dd-846a-1c6e80b47e4a" /><attribute name="ServerSessionId" id="055bbdd4-4e88-4fe3-9c91-9e6a0848ace6" /><attribute name="LoginMethod" id="16759d2e-ff6e-443c-8c45-6e6c5881cc45" /><attribute name="SessionId" id="5fc0e8be-174f-40c6-8e0c-449b4afe48db" /><attribute name="RemoteIp" id="c491f08b-9092-460e-8c1c-5a0971da41ea" /><associationend name="SysUser" id="cbb0a1e9-c9d3-4f91-b530-e2f15d73b6e4" /></class><class name="SysSingleton" id="ad4cf46f-0195-4197-bef2-9f8dd89a3870"><attribute name="ChangeTime" id="595b61dd-b2d6-4010-9557-88d32ad9e4cd" /><attribute name="Guid" id="6c4398ca-d6f8-4763-b162-77c675aa06dc" /><attribute name="CreateTime" id="89803d28-5552-457f-bc84-33f0bf1ba9eb" /><associationend name="CurrentUser" id="c58f940a-682a-461e-9c0e-b8536f8381bf" /></class><class name="SysUserClaim" id="d463013a-d624-45c4-80fd-73d63fd488fa"><attribute name="ChangeTime" id="595b61dd-b2d6-4010-9557-88d32ad9e4cd" /><attribute name="Guid" id="6c4398ca-d6f8-4763-b162-77c675aa06dc" /><attribute name="CreateTime" id="89803d28-5552-457f-bc84-33f0bf1ba9eb" /><attribute name="ClaimType" id="8dbb3aee-5e29-48c2-a7e8-deb982109222" /><attribute name="ClaimValue" id="a98174fb-623a-4177-9191-f06c82330fd2" /><attribute name="OriginalIssuer" id="b040b369-b8a5-4a40-bece-f3e8b3904071" /><attribute name="ValueType" id="c2e1a1fc-12fa-49e2-9c7d-0d96530bde2a" /><attribute name="Issuer" id="d2c02585-f187-40de-a32d-6682b908712d" /><associationend name="SysUser" id="12532b0d-4a51-478d-aac8-906470b9eac5" /></class></package></ModelInfo><AutoIncValues><id value="95" /><version value="0" /></AutoIncValues></EcoData>